get-list-sat/get-list-sat/bin/Debug/2.txt

Satellite passes / Orbitron 3.71 / www.stoff.pl

Location      : HN (105.5239° E, 20.9798° N)
Time zone     : UTC +7:00
Search period : 2023-11-06 08:18:48 - 1 days
                2023-11-07 08:18:48
Conditions    : Maximum sun elevation = None
                Minimum sat elevation = 15 deg
                Illumination NOT required

Time                Satellite              Azm  Elv  Mag Range S.Azm S.Elv
--------------------------------------------------------------------------
2023-11-07 06:56:38 SHIYAN 20A (SY-20A)  175.4 15.0  ecl  1900 142.2  44.7
2023-11-07 07:00:36 SHIYAN 20A (SY-20A)  115.7 35.7  ecl  1900 142.2  44.7
2023-11-07 07:04:33 SHIYAN 20A (SY-20A)   56.1 15.0  ecl  1900 142.2  44.7

2023-11-07 07:02:30 YAOGAN-40 01A        338.2 15.0  ecl  1900 142.2  44.7
2023-11-07 07:06:48 YAOGAN-40 01A        272.2 43.3  ecl  1900 142.2  44.7
2023-11-07 07:11:06 YAOGAN-40 01A        205.9 15.0  ecl  1900 142.2  44.7

2023-11-07 07:02:45 YAOGAN-40 01B        338.0 15.0  ecl  1900 142.2  44.7
2023-11-07 07:07:02 YAOGAN-40 01B        272.2 43.0  ecl  1900 142.2  44.7
2023-11-07 07:11:20 YAOGAN-40 01B        206.2 15.0  ecl  1900 142.2  44.7

2023-11-07 07:23:41 YAOGAN-39 03C        149.5 15.0  ecl  1900 142.2  44.7
2023-11-07 07:24:03 YAOGAN-39 03C        142.6 15.2  ecl  1900 142.2  44.7
2023-11-07 07:24:25 YAOGAN-39 03C        135.7 15.0  ecl  1900 142.2  44.7

2023-11-07 07:28:09 YAOGAN-39 03B        164.3 15.0  ecl  1900 142.2  44.7
2023-11-07 07:29:17 YAOGAN-39 03B        142.9 16.8  ecl  1900 142.2  44.7
2023-11-07 07:30:25 YAOGAN-39 03B        121.5 15.0  ecl  1900 142.2  44.7

2023-11-07 07:28:25 YAOGAN-39 03A        164.6 15.0  ecl  1900 142.2  44.7
2023-11-07 07:29:33 YAOGAN-39 03A        142.9 16.8  ecl  1900 142.2  44.7
2023-11-07 07:30:42 YAOGAN-39 03A        121.3 15.0  ecl  1900 142.2  44.7

2023-11-07 07:32:14 YAOGAN-40 01C        301.4 15.0  ecl  1900 142.2  44.7
2023-11-07 07:34:09 YAOGAN-40 01C        274.8 18.2  ecl  1900 142.2  44.7
2023-11-07 07:36:05 YAOGAN-40 01C        248.0 15.0  ecl  1900 142.2  44.7

2023-11-07 07:35:00 YAOGAN-37            289.7 15.0  ecl  1900 142.2  44.7
2023-11-07 07:37:58 YAOGAN-37            223.8 40.7  ecl  1900 142.2  44.7
2023-11-07 07:40:55 YAOGAN-37            157.9 15.0  ecl  1900 142.2  44.7

2023-11-07 08:41:57 SHIYAN 20A (SY-20A)  266.1 15.0  ecl  1900 142.2  44.7
2023-11-07 08:44:53 SHIYAN 20A (SY-20A)  305.9 22.4  ecl  1900 142.2  44.7
2023-11-07 08:47:49 SHIYAN 20A (SY-20A)  345.9 15.0  ecl  1900 142.2  44.7

2023-11-07 09:00:24 YAOGAN-39 03C        246.5 15.0  ecl  1900 142.2  44.7
2023-11-07 09:03:31 YAOGAN-39 03C        330.5 73.1  ecl  1900 142.2  44.7
2023-11-07 09:06:39 YAOGAN-39 03C         54.6 15.0  ecl  1900 142.2  44.7

2023-11-07 09:05:42 YAOGAN-39 03B        249.8 15.0  ecl  1900 142.2  44.7
2023-11-07 09:08:48 YAOGAN-39 03B        331.1 66.2  ecl  1900 142.2  44.7
2023-11-07 09:11:54 YAOGAN-39 03B         52.3 15.0  ecl  1900 142.2  44.7

2023-11-07 09:05:58 YAOGAN-39 03A        250.0 15.0  ecl  1900 142.2  44.7
2023-11-07 09:09:03 YAOGAN-39 03A        331.1 65.8  ecl  1900 142.2  44.7
2023-11-07 09:12:09 YAOGAN-39 03A         52.2 15.0  ecl  1900 142.2  44.7

2023-11-07 09:22:05 CBERS-4               76.7 15.0  ecl  1900 142.2  44.7
2023-11-07 09:23:34 CBERS-4               97.4 16.8  ecl  1900 142.2  44.7
2023-11-07 09:25:04 CBERS-4              118.0 15.0  ecl  1900 142.2  44.7

2023-11-07 09:26:22 HAIYANG 1C            51.4 15.0  ecl  1900 142.2  44.7
2023-11-07 09:29:31 HAIYANG 1C            98.7 26.0  ecl  1900 142.2  44.7
2023-11-07 09:32:40 HAIYANG 1C           145.9 15.0  ecl  1900 142.2  44.7

2023-11-07 09:56:27 T2V                   34.9 15.0  ecl  1900 142.2  44.7
2023-11-07 09:59:42 T2V                   99.8 39.6  ecl  1900 142.2  44.7
2023-11-07 10:02:56 T2V                  164.6 15.0  ecl  1900 142.2  44.7

2023-11-07 10:42:14 YAOGAN-39 03C        317.2 15.0  ecl  1900 142.2  44.7
2023-11-07 10:43:35 YAOGAN-39 03C        342.7 17.5  ecl  1900 142.2  44.7
2023-11-07 10:44:56 YAOGAN-39 03C          8.3 15.0  ecl  1900 142.2  44.7

2023-11-07 10:47:47 YAOGAN-39 03B        322.3 15.0  ecl  1900 142.2  44.7
2023-11-07 10:48:55 YAOGAN-39 03B        343.4 16.7  ecl  1900 142.2  44.7
2023-11-07 10:50:02 YAOGAN-39 03B          4.6 15.0  ecl  1900 142.2  44.7

2023-11-07 10:48:04 YAOGAN-39 03A        323.0 15.0  ecl  1900 142.2  44.7
2023-11-07 10:49:09 YAOGAN-39 03A        343.4 16.6  ecl  1900 142.2  44.7
2023-11-07 10:50:14 YAOGAN-39 03A          3.9 15.0  ecl  1900 142.2  44.7

2023-11-07 10:59:02 CBERS-4              343.9 15.0  ecl  1900 142.2  44.7
2023-11-07 11:02:39 CBERS-4              286.1 34.1  ecl  1900 142.2  44.7
2023-11-07 11:06:16 CBERS-4              228.1 15.0  ecl  1900 142.2  44.7

2023-11-07 11:05:45 HAIYANG 1C           327.8 15.0  ecl  1900 142.2  44.7
2023-11-07 11:08:31 HAIYANG 1C           287.6 22.8  ecl  1900 142.2  44.7
2023-11-07 11:11:17 HAIYANG 1C           247.3 15.0  ecl  1900 142.2  44.7

2023-11-07 11:12:31 JILIN-01 KUANFU 02A   24.9 15.0  ecl  1900 142.2  44.7
2023-11-07 11:15:35 JILIN-01 KUANFU 02A  100.4 54.7  ecl  1900 142.2  44.7
2023-11-07 11:18:40 JILIN-01 KUANFU 02A  175.9 15.0  ecl  1900 142.2  44.7

2023-11-07 11:14:02 GAOFEN 12 04         133.9 15.0  ecl  1900 142.2  44.7
2023-11-07 11:17:06 GAOFEN 12 04          75.1 33.9  ecl  1900 142.2  44.7
2023-11-07 11:20:10 GAOFEN 12 04          16.6 15.0  ecl  1900 142.2  44.7

2023-11-07 11:51:19 YAOGAN-33 03         147.2 15.0  ecl  1900 142.2  44.7
2023-11-07 11:55:01 YAOGAN-33 03          75.8 49.7  ecl  1900 142.2  44.7
2023-11-07 11:58:43 YAOGAN-33 03           4.6 15.0  ecl  1900 142.2  44.7

2023-11-07 12:24:11 HAIYANG 1D           120.0 15.0  ecl  1900 142.2  44.7
2023-11-07 12:27:19 HAIYANG 1D            72.8 26.3  ecl  1900 142.2  44.7
2023-11-07 12:30:27 HAIYANG 1D            25.7 15.0  ecl  1900 142.2  44.7

2023-11-07 12:36:59 YAOGAN-39 04C        197.7 15.0  ecl  1900 142.2  44.7
2023-11-07 12:39:26 YAOGAN-39 04C        144.8 28.4  ecl  1900 142.2  44.7
2023-11-07 12:41:54 YAOGAN-39 04C         92.0 15.0  ecl  1900 142.2  44.7

2023-11-07 12:40:42 YAOGAN-39 04B        201.0 15.0  ecl  1900 142.2  44.7
2023-11-07 12:43:16 YAOGAN-39 04B        145.1 30.7  ecl  1900 142.2  44.7
2023-11-07 12:45:49 YAOGAN-39 04B         89.1 15.0  ecl  1900 142.2  44.7

2023-11-07 12:47:17 YAOGAN-39 04A        206.5 15.0  ecl  1900 142.2  44.7
2023-11-07 12:50:00 YAOGAN-39 04A        145.5 35.0  ecl  1900 142.2  44.7
2023-11-07 12:52:43 YAOGAN-39 04A         84.6 15.0  ecl  1900 142.2  44.7

2023-11-07 13:42:13 YAOGAN-33 04         137.5 15.0  ecl  1900 142.2  44.7
2023-11-07 13:45:41 YAOGAN-33 04          75.0 38.0  ecl  1900 142.2  44.7
2023-11-07 13:49:09 YAOGAN-33 04          12.7 15.0  ecl  1900 142.2  44.7

2023-11-07 14:03:40 HAIYANG 1D           222.2 15.0  ecl  1900 142.2  44.7
2023-11-07 14:06:22 HAIYANG 1D           261.6 22.2  ecl  1900 142.2  44.7
2023-11-07 14:09:05 HAIYANG 1D           301.1 15.0  ecl  1900 142.2  44.7

2023-11-07 14:16:19 YAOGAN-39 04C        268.7 15.0  ecl  1900 142.2  44.7
2023-11-07 14:19:07 YAOGAN-39 04C        334.2 39.2  ecl  1900 142.2  44.7
2023-11-07 14:21:56 YAOGAN-39 04C         39.7 15.0  ecl  1900 142.2  44.7

2023-11-07 14:20:13 YAOGAN-39 04B        271.1 15.0  ecl  1900 142.2  44.7
2023-11-07 14:22:59 YAOGAN-39 04B        334.6 37.0  ecl  1900 142.2  44.7
2023-11-07 14:25:45 YAOGAN-39 04B         38.1 15.0  ecl  1900 142.2  44.7

2023-11-07 14:27:06 YAOGAN-39 04A        275.4 15.0  ecl  1900 142.2  44.7
2023-11-07 14:29:47 YAOGAN-39 04A        335.4 33.7  ecl  1900 142.2  44.7
2023-11-07 14:32:29 YAOGAN-39 04A         35.4 15.0  ecl  1900 142.2  44.7

2023-11-07 15:42:17 YAOGAN-39 03C        315.6 15.0  ecl  1900 142.2  44.7
2023-11-07 15:45:14 YAOGAN-39 03C         27.0 47.1  ecl  1900 142.2  44.7
2023-11-07 15:48:11 YAOGAN-39 03C         98.3 15.0  ecl  1900 142.2  44.7

2023-11-07 15:47:35 YAOGAN-39 03B        313.4 15.0  ecl  1900 142.2  44.7
2023-11-07 15:50:35 YAOGAN-39 03B         27.5 51.7  ecl  1900 142.2  44.7
2023-11-07 15:53:35 YAOGAN-39 03B        101.7 15.0  ecl  1900 142.2  44.7

2023-11-07 15:47:47 YAOGAN-39 03A        313.4 15.0  ecl  1900 142.2  44.7
2023-11-07 15:50:46 YAOGAN-39 03A         27.6 51.8  ecl  1900 142.2  44.7
2023-11-07 15:53:45 YAOGAN-39 03A        101.8 15.0  ecl  1900 142.2  44.7

2023-11-07 17:22:40 YAOGAN-39 03C        259.7 15.0  ecl  1900 142.2  44.7
2023-11-07 17:24:49 YAOGAN-39 03C        216.0 23.4  ecl  1900 142.2  44.7
2023-11-07 17:26:56 YAOGAN-39 03C        172.3 15.0  ecl  1900 142.2  44.7

2023-11-07 17:28:13 YAOGAN-39 03B        254.8 15.0  ecl  1900 142.2  44.7
2023-11-07 17:30:09 YAOGAN-39 03B        216.3 21.2  ecl  1900 142.2  44.7
2023-11-07 17:32:04 YAOGAN-39 03B        177.9 15.0  ecl  1900 142.2  44.7

2023-11-07 17:28:25 YAOGAN-39 03A        254.5 15.0  ecl  1900 142.2  44.7
2023-11-07 17:30:19 YAOGAN-39 03A        216.3 21.1  ecl  1900 142.2  44.7
2023-11-07 17:32:13 YAOGAN-39 03A        178.2 15.0  ecl  1900 142.2  44.7

2023-11-07 17:30:06 HEAD-3E              180.2 15.0  ecl  1900 142.2  44.7
2023-11-07 17:33:10 HEAD-3E              131.8 26.6  ecl  1900 142.2  44.7
2023-11-07 17:36:14 HEAD-3E               83.4 15.0  ecl  1900 142.2  44.7

2023-11-07 17:31:24 HEAD-3C              178.7 15.0  ecl  1900 142.2  44.7
2023-11-07 17:34:25 HEAD-3C              131.7 25.8  ecl  1900 142.2  44.7
2023-11-07 17:37:26 HEAD-3C               84.7 15.0  ecl  1900 142.2  44.7

2023-11-07 17:36:28 HEAD-3A              180.7 15.0  ecl  1900 142.2  44.7
2023-11-07 17:39:35 HEAD-3A              131.8 26.9  ecl  1900 142.2  44.7
2023-11-07 17:42:42 HEAD-3A               83.0 15.0  ecl  1900 142.2  44.7

2023-11-07 17:38:17 SHIYAN 20A (SY-20A)  335.8 15.0  ecl  1900 142.2  44.7
2023-11-07 17:42:47 SHIYAN 20A (SY-20A)   60.1 74.5  ecl  1900 142.2  44.7
2023-11-07 17:47:16 SHIYAN 20A (SY-20A)  144.3 15.0  ecl  1900 142.2  44.7

2023-11-07 18:17:41 YAOGAN-40 01A        157.6 15.0  ecl  1900 142.2  44.7
2023-11-07 18:22:05 YAOGAN-40 01A         88.2 47.6  ecl  1900 142.2  44.7
2023-11-07 18:26:29 YAOGAN-40 01A         19.0 15.0  ecl  1900 142.2  44.7

2023-11-07 18:17:55 YAOGAN-40 01B        157.8 15.0  ecl  1900 142.2  44.7
2023-11-07 18:22:19 YAOGAN-40 01B         88.2 47.9  ecl  1900 142.2  44.7
2023-11-07 18:26:44 YAOGAN-40 01B         18.8 15.0  ecl  1900 142.2  44.7

2023-11-07 18:18:26 HEAD-3B              216.3 15.0  ecl  1900 142.2  44.7
2023-11-07 18:22:32 HEAD-3B              135.3 68.2  ecl  1900 142.2  44.7
2023-11-07 18:26:39 HEAD-3B               54.5 15.0  ecl  1900 142.2  44.7

2023-11-07 18:25:15 HEAD-3D              223.1 15.0  ecl  1900 142.2  44.7
2023-11-07 18:29:22 HEAD-3D              136.2 82.8  ecl  1900 142.2  44.7
2023-11-07 18:33:31 HEAD-3D               49.4 15.0  ecl  1900 142.2  44.7

2023-11-07 18:36:02 YAOGAN-40 01C        176.7 15.0  ecl  1900 142.2  44.7
2023-11-07 18:40:29 YAOGAN-40 01C         90.2 82.0  ecl  1900 142.2  44.7
2023-11-07 18:44:53 YAOGAN-40 01C          3.9 15.0  ecl  1900 142.2  44.7

2023-11-07 19:12:53 HEAD-3E              257.8 15.0  ecl  1900 142.2  44.7
2023-11-07 19:16:35 HEAD-3E              321.4 38.6  ecl  1900 142.2  44.7
2023-11-07 19:20:17 HEAD-3E               25.2 15.0  ecl  1900 142.2  44.7

2023-11-07 19:14:10 HEAD-3C              256.4 15.0  ecl  1900 142.2  44.7
2023-11-07 19:17:55 HEAD-3C              321.2 39.9  ecl  1900 142.2  44.7
2023-11-07 19:21:41 HEAD-3C               26.1 15.0  ecl  1900 142.2  44.7

2023-11-07 19:19:17 YAOGAN-39 04C        346.1 15.0  ecl  1900 142.2  44.7
2023-11-07 19:20:58 YAOGAN-39 04C         18.9 19.2  ecl  1900 142.2  44.7
2023-11-07 19:22:39 YAOGAN-39 04C         51.6 15.0  ecl  1900 142.2  44.7

2023-11-07 19:19:28 HEAD-3A              257.7 15.0  ecl  1900 142.2  44.7
2023-11-07 19:23:12 HEAD-3A              321.4 38.7  ecl  1900 142.2  44.7
2023-11-07 19:26:56 HEAD-3A               25.2 15.0  ecl  1900 142.2  44.7

2023-11-07 19:23:05 YAOGAN-39 04B        343.8 15.0  ecl  1900 142.2  44.7
2023-11-07 19:24:54 YAOGAN-39 04B         19.4 20.1  ecl  1900 142.2  44.7
2023-11-07 19:26:43 YAOGAN-39 04B         54.9 15.0  ecl  1900 142.2  44.7

2023-11-07 19:29:50 YAOGAN-39 04A        340.1 15.0  ecl  1900 142.2  44.7
2023-11-07 19:31:51 YAOGAN-39 04A         20.2 21.7  ecl  1900 142.2  44.7
2023-11-07 19:33:52 YAOGAN-39 04A         60.4 15.0  ecl  1900 142.2  44.7

2023-11-07 20:04:24 HEAD-3B              296.4 15.0  ecl  1900 142.2  44.7
2023-11-07 20:06:31 HEAD-3B              327.4 19.1  ecl  1900 142.2  44.7
2023-11-07 20:08:39 HEAD-3B              358.3 15.0  ecl  1900 142.2  44.7

2023-11-07 20:12:02 HEAD-3D              309.7 15.0  ecl  1900 142.2  44.7
2023-11-07 20:13:23 HEAD-3D              328.8 16.5  ecl  1900 142.2  44.7
2023-11-07 20:14:43 HEAD-3D              347.9 15.0  ecl  1900 142.2  44.7

2023-11-07 20:57:52 YAOGAN-39 04C        300.5 15.0  ecl  1900 142.2  44.7
2023-11-07 21:01:00 YAOGAN-39 04C         30.6 89.2  ecl  1900 142.2  44.7
2023-11-07 21:04:08 YAOGAN-39 04C        120.5 15.0  ecl  1900 142.2  44.7

2023-11-07 21:01:48 YAOGAN-39 04B        298.7 15.0  ecl  1900 142.2  44.7
2023-11-07 21:04:56 YAOGAN-39 04B        210.9 84.8  ecl  1900 142.2  44.7
2023-11-07 21:08:04 YAOGAN-39 04B        123.0 15.0  ecl  1900 142.2  44.7

2023-11-07 21:08:45 YAOGAN-39 04A        295.4 15.0  ecl  1900 142.2  44.7
2023-11-07 21:11:52 YAOGAN-39 04A        211.5 74.4  ecl  1900 142.2  44.7
2023-11-07 21:15:01 YAOGAN-39 04A        127.5 15.0  ecl  1900 142.2  44.7

2023-11-07 21:13:57 YAOGAN-37            187.3 15.0  ecl  1900 142.2  44.7
2023-11-07 21:16:27 YAOGAN-37            135.0 28.2  ecl  1900 142.2  44.7
2023-11-07 21:18:58 YAOGAN-37             82.7 15.0  ecl  1900 142.2  44.7

2023-11-07 22:03:09 CBERS-4              173.4 15.0  ecl  1900 142.2  44.7
2023-11-07 22:07:24 CBERS-4              257.9 75.5  ecl  1900 142.2  44.7
2023-11-07 22:11:40 CBERS-4              342.6 15.0  ecl  1900 142.2  44.7

2023-11-07 22:09:58 HAIYANG 1C           189.5 15.0  ecl  1900 142.2  44.7
2023-11-07 22:13:58 HAIYANG 1C           259.4 47.2  ecl  1900 142.2  44.7
2023-11-07 22:17:59 HAIYANG 1C           329.5 15.0  ecl  1900 142.2  44.7

2023-11-07 22:16:35 T2V                  188.7 15.0  ecl  1900 142.2  44.7
2023-11-07 22:19:58 T2V                  259.7 47.8  ecl  1900 142.2  44.7
2023-11-07 22:23:21 T2V                  330.8 15.0  ecl  1900 142.2  44.7

2023-11-07 22:53:32 YAOGAN-37            275.0 15.0  ecl  1900 142.2  44.7
2023-11-07 22:55:58 YAOGAN-37            324.9 26.4  ecl  1900 142.2  44.7
2023-11-07 22:58:24 YAOGAN-37             14.9 15.0  ecl  1900 142.2  44.7

2023-11-07 23:14:44 GAOFEN 12 04          83.8 15.0  ecl  1900 142.2  44.7
2023-11-07 23:15:34 GAOFEN 12 04          97.2 15.7  ecl  1900 142.2  44.7
2023-11-07 23:16:23 GAOFEN 12 04         110.6 15.0  ecl  1900 142.2  44.7

2023-11-07 23:18:58 JILIN-01 KUANFU 02A  187.8 15.0  ecl  1900 142.2  44.7
2023-11-07 23:21:55 JILIN-01 KUANFU 02A  259.8 48.7  ecl  1900 142.2  44.7
2023-11-07 23:24:52 JILIN-01 KUANFU 02A  332.0 15.0  ecl  1900 142.2  44.7

2023-11-08 00:00:47 YAOGAN-33 03          43.8 15.0  ecl  1900 142.2  44.7
2023-11-08 00:04:00 YAOGAN-33 03          99.2 31.0  ecl  1900 142.2  44.7
2023-11-08 00:07:12 YAOGAN-33 03         154.5 15.0  ecl  1900 142.2  44.7

2023-11-08 00:46:00 HAIYANG 1D            57.3 15.0  ecl  1900 142.2  44.7
2023-11-08 00:48:50 HAIYANG 1D            98.5 22.9  ecl  1900 142.2  44.7
2023-11-08 00:51:38 HAIYANG 1D           139.6 15.0  ecl  1900 142.2  44.7

2023-11-08 00:49:02 GAOFEN 12 04         333.2 15.0  ecl  1900 142.2  44.7
2023-11-08 00:51:40 GAOFEN 12 04         285.8 25.9  ecl  1900 142.2  44.7
2023-11-08 00:54:18 GAOFEN 12 04         238.3 15.0  ecl  1900 142.2  44.7

2023-11-08 01:40:16 YAOGAN-33 03         303.1 15.0  ecl  1900 142.2  44.7
2023-11-08 01:41:15 YAOGAN-33 03         288.2 15.9  ecl  1900 142.2  44.7
2023-11-08 01:42:15 YAOGAN-33 03         273.3 15.0  ecl  1900 142.2  44.7

2023-11-08 01:51:52 YAOGAN-33 04          53.9 15.0  ecl  1900 142.2  44.7
2023-11-08 01:54:36 YAOGAN-33 04          98.3 24.3  ecl  1900 142.2  44.7
2023-11-08 01:57:19 YAOGAN-33 04         142.7 15.0  ecl  1900 142.2  44.7

2023-11-08 02:14:48 HEAD-3E              346.0 15.0  ecl  1900 142.2  44.7
2023-11-08 02:17:59 HEAD-3E               35.9 27.2  ecl  1900 142.2  44.7
2023-11-08 02:21:10 HEAD-3E               85.7 15.0  ecl  1900 142.2  44.7

2023-11-08 02:16:34 HEAD-3C              346.6 15.0  ecl  1900 142.2  44.7
2023-11-08 02:19:43 HEAD-3C               35.8 26.7  ecl  1900 142.2  44.7
2023-11-08 02:22:52 HEAD-3C               84.8 15.0  ecl  1900 142.2  44.7

2023-11-08 02:22:10 HEAD-3A              345.2 15.0  ecl  1900 142.2  44.7
2023-11-08 02:25:25 HEAD-3A               36.1 27.8  ecl  1900 142.2  44.7
2023-11-08 02:28:40 HEAD-3A               86.9 15.0  ecl  1900 142.2  44.7

2023-11-08 02:24:47 HAIYANG 1D           333.3 15.0  ecl  1900 142.2  44.7
2023-11-08 02:27:52 HAIYANG 1D           287.3 25.7  ecl  1900 142.2  44.7
2023-11-08 02:30:57 HAIYANG 1D           241.2 15.0  ecl  1900 142.2  44.7

2023-11-08 03:04:16 HEAD-3B              322.9 15.0  ecl  1900 142.2  44.7
2023-11-08 03:08:23 HEAD-3B               41.3 61.1  ecl  1900 142.2  44.7
2023-11-08 03:12:30 HEAD-3B              119.6 15.0  ecl  1900 142.2  44.7

2023-11-08 03:10:38 HEAD-3D              318.4 15.0  ecl  1900 142.2  44.7
2023-11-08 03:14:48 HEAD-3D               42.3 73.2  ecl  1900 142.2  44.7
2023-11-08 03:18:57 HEAD-3D              126.0 15.0  ecl  1900 142.2  44.7

2023-11-08 03:29:46 YAOGAN-33 04         321.5 15.0  ecl  1900 142.2  44.7
2023-11-08 03:31:58 YAOGAN-33 04         287.2 20.3  ecl  1900 142.2  44.7
2023-11-08 03:34:09 YAOGAN-33 04         252.9 15.0  ecl  1900 142.2  44.7

2023-11-08 03:57:48 HEAD-3E              292.3 15.0  ecl  1900 142.2  44.7
2023-11-08 04:01:36 HEAD-3E              226.6 41.8  ecl  1900 142.2  44.7
2023-11-08 04:05:24 HEAD-3E              160.8 15.0  ecl  1900 142.2  44.7

2023-11-08 03:59:36 HEAD-3C              293.1 15.0  ecl  1900 142.2  44.7
2023-11-08 04:03:26 HEAD-3C              226.5 43.0  ecl  1900 142.2  44.7
2023-11-08 04:07:17 HEAD-3C              159.8 15.0  ecl  1900 142.2  44.7

2023-11-08 04:05:25 HEAD-3A              291.7 15.0  ecl  1900 142.2  44.7
2023-11-08 04:09:14 HEAD-3A              226.7 41.0  ecl  1900 142.2  44.7
2023-11-08 04:13:02 HEAD-3A              161.6 15.0  ecl  1900 142.2  44.7

2023-11-08 04:50:22 HEAD-3B              249.7 15.0  ecl  1900 142.2  44.7
2023-11-08 04:51:47 HEAD-3B              229.7 16.7  ecl  1900 142.2  44.7
2023-11-08 04:53:12 HEAD-3B              209.7 15.0  ecl  1900 142.2  44.7

2023-11-08 05:37:54 YAOGAN-37            349.5 15.0  ecl  1900 142.2  44.7
2023-11-08 05:40:11 YAOGAN-37             34.3 23.8  ecl  1900 142.2  44.7
2023-11-08 05:42:28 YAOGAN-37             79.1 15.0  ecl  1900 142.2  44.7

