get-list-sat/get-list-sat/bin/Debug/lich.txt

Satellite passes / Orbitron 3.71 / www.stoff.pl

Location      : HN (105.5239° E, 20.9798° N)
Time zone     : UTC +7:00
Search period : 2023-11-06 08:18:48 - 1 days
                2023-11-07 08:18:48
Conditions    : Maximum sun elevation = None
                Minimum sat elevation = 15 deg
                Illumination NOT required

Time                Satellite              Azm  Elv  Mag Range S.Azm S.Elv
--------------------------------------------------------------------------
2023-11-07 00:08:39 YAOGAN-36 05A          5.8 15.0  ecl  1900 142.2  44.7
2023-11-07 00:09:11 YAOGAN-36 05A         15.6 15.3  ecl  1900 142.2  44.7
2023-11-07 00:09:42 YAOGAN-36 05A         25.3 15.0  ecl  1900 142.2  44.7

2023-11-07 00:18:45 YAOGAN-35 04B        347.0 15.0  ecl  1900 142.2  44.7
2023-11-07 00:20:21 YAOGAN-35 04B         18.8 19.0  ecl  1900 142.2  44.7
2023-11-07 00:21:58 YAOGAN-35 04B         50.6 15.0  ecl  1900 142.2  44.7

2023-11-07 00:18:45 YAOGAN-35 04B        347.0 15.0  ecl  1900 142.2  44.7
2023-11-07 00:20:21 YAOGAN-35 04B         18.8 19.0  ecl  1900 142.2  44.7
2023-11-07 00:21:58 YAOGAN-35 04B         50.6 15.0  ecl  1900 142.2  44.7

2023-11-07 00:32:07 YAOGAN-36 05C        345.3 15.0  ecl  1900 142.2  44.7
2023-11-07 00:33:50 YAOGAN-36 05C         18.9 19.5  ecl  1900 142.2  44.7
2023-11-07 00:35:33 YAOGAN-36 05C         52.5 15.0  ecl  1900 142.2  44.7

2023-11-07 00:35:34 YAOGAN-30 P          347.6 15.0  ecl  1900 142.2  44.7
2023-11-07 00:35:41 YAOGAN-30 P          349.4 15.0  ecl  1900 142.2  44.7
2023-11-07 00:35:47 YAOGAN-30 P          351.2 15.0  ecl  1900 142.2  44.7

2023-11-07 00:50:39 YAOGAN-36 05B        336.2 15.0  ecl  1900 142.2  44.7
2023-11-07 00:52:51 YAOGAN-36 05B         21.4 23.9  ecl  1900 142.2  44.7
2023-11-07 00:55:03 YAOGAN-36 05B         66.6 15.0  ecl  1900 142.2  44.7

2023-11-07 01:15:13 HAIYANG 1D            28.0 15.0  ecl  1900 142.2  44.7
2023-11-07 01:19:20 HAIYANG 1D           101.0 51.7  ecl  1900 142.2  44.7
2023-11-07 01:23:26 HAIYANG 1D           173.9 15.0  ecl  1900 142.2  44.7

2023-11-07 01:46:16 YAOGAN-36 05A        310.8 15.0  ecl  1900 142.2  44.7
2023-11-07 01:49:16 YAOGAN-36 05A         28.2 57.8  ecl  1900 142.2  44.7
2023-11-07 01:52:17 YAOGAN-36 05A        105.6 15.0  ecl  1900 142.2  44.7

2023-11-07 01:47:08 YAOGAN-31 D          178.9 15.0  ecl  1900 142.2  44.7
2023-11-07 01:52:19 YAOGAN-31 D          111.8 45.3  ecl  1900 142.2  44.7
2023-11-07 01:57:34 YAOGAN-31 D           45.0 15.0  ecl  1900 142.2  44.7

2023-11-07 01:47:13 YAOGAN-31 E          181.9 15.0  ecl  1900 142.2  44.7
2023-11-07 01:52:30 YAOGAN-31 E          112.1 49.0  ecl  1900 142.2  44.7
2023-11-07 01:57:51 YAOGAN-31 E           42.6 15.0  ecl  1900 142.2  44.7

2023-11-07 01:57:06 YAOGAN-35 04B        300.4 15.0  ecl  1900 142.2  44.7
2023-11-07 02:00:11 YAOGAN-35 04B         30.5 89.5  ecl  1900 142.2  44.7
2023-11-07 02:03:15 YAOGAN-35 04B        120.6 15.0  ecl  1900 142.2  44.7

2023-11-07 01:57:06 YAOGAN-35 04B        300.4 15.0  ecl  1900 142.2  44.7
2023-11-07 02:00:11 YAOGAN-35 04B         30.5 89.5  ecl  1900 142.2  44.7
2023-11-07 02:03:15 YAOGAN-35 04B        120.6 15.0  ecl  1900 142.2  44.7

2023-11-07 02:10:42 YAOGAN-36 05C        299.8 15.0  ecl  1900 142.2  44.7
2023-11-07 02:13:49 YAOGAN-36 05C        210.6 88.6  ecl  1900 142.2  44.7
2023-11-07 02:16:55 YAOGAN-36 05C        121.4 15.0  ecl  1900 142.2  44.7

2023-11-07 02:12:09 57626_OBJECT A         8.0 15.0  ecl  1900 142.2  44.7
2023-11-07 02:13:49 57626_OBJECT A        31.6 17.3  ecl  1900 142.2  44.7
2023-11-07 02:15:29 57626_OBJECT A        55.2 15.0  ecl  1900 142.2  44.7

2023-11-07 02:19:53 YUNHAI 2 3           198.0 15.0  ecl  1900 142.2  44.7
2023-11-07 02:24:14 YUNHAI 2 3           127.9 48.4  ecl  1900 142.2  44.7
2023-11-07 02:28:35 YUNHAI 2 3            57.9 15.0  ecl  1900 142.2  44.7

2023-11-07 02:29:41 YAOGAN-36 05B        290.7 15.0  ecl  1900 142.2  44.7
2023-11-07 02:32:44 YAOGAN-36 05B        212.3 61.0  ecl  1900 142.2  44.7
2023-11-07 02:35:47 YAOGAN-36 05B        133.9 15.0  ecl  1900 142.2  44.7

2023-11-07 02:50:56 57629_OBJECT D       339.9 15.0  ecl  1900 142.2  44.7
2023-11-07 02:54:28 57629_OBJECT D        37.4 32.7  ecl  1900 142.2  44.7
2023-11-07 02:57:59 57629_OBJECT D        94.8 15.0  ecl  1900 142.2  44.7

2023-11-07 03:20:43 57628_OBJECT C       325.2 15.0  ecl  1900 142.2  44.7
2023-11-07 03:24:47 57628_OBJECT C        40.8 55.6  ecl  1900 142.2  44.7
2023-11-07 03:28:50 57628_OBJECT C       116.2 15.0  ecl  1900 142.2  44.7

2023-11-07 03:27:12 YAOGAN-36 05A        247.1 15.0  ecl  1900 142.2  44.7
2023-11-07 03:28:45 YAOGAN-36 05A        216.6 18.7  ecl  1900 142.2  44.7
2023-11-07 03:30:18 YAOGAN-36 05A        186.2 15.0  ecl  1900 142.2  44.7

2023-11-07 03:39:23 YAOGAN-31 D          264.7 15.0  ecl  1900 142.2  44.7
2023-11-07 03:42:55 YAOGAN-31 D          303.8 22.4  ecl  1900 142.2  44.7
2023-11-07 03:46:31 YAOGAN-31 D          342.8 15.0  ecl  1900 142.2  44.7

2023-11-07 03:39:32 57627_OBJECT B       316.4 15.0  ecl  1900 142.2  44.7
2023-11-07 03:43:44 57627_OBJECT B        42.7 79.3  ecl  1900 142.2  44.7
2023-11-07 03:47:55 57627_OBJECT B       128.9 15.0  ecl  1900 142.2  44.7

2023-11-07 03:39:56 YAOGAN-31 E          269.2 15.0  ecl  1900 142.2  44.7
2023-11-07 03:43:10 YAOGAN-31 E          304.3 20.8  ecl  1900 142.2  44.7
2023-11-07 03:46:26 YAOGAN-31 E          339.4 15.0  ecl  1900 142.2  44.7

2023-11-07 03:53:42 57626_OBJECT A       309.5 15.0  ecl  1900 142.2  44.7
2023-11-07 03:57:53 57626_OBJECT A       224.0 79.4  ecl  1900 142.2  44.7
2023-11-07 04:02:04 57626_OBJECT A       138.4 15.0  ecl  1900 142.2  44.7

2023-11-07 03:58:47 YAOGAN-30 P          330.8 15.0  ecl  1900 142.2  44.7
2023-11-07 04:01:32 YAOGAN-30 P           21.0 26.9  ecl  1900 142.2  44.7
2023-11-07 04:04:18 YAOGAN-30 P           71.0 15.0  ecl  1900 142.2  44.7

2023-11-07 04:06:44 YUNHAI 2 3           277.2 15.0  ecl  1900 142.2  44.7
2023-11-07 04:09:49 YUNHAI 2 3           319.2 23.3  ecl  1900 142.2  44.7
2023-11-07 04:12:54 YUNHAI 2 3             1.2 15.0  ecl  1900 142.2  44.7

2023-11-07 04:34:32 57629_OBJECT D       284.9 15.0  ecl  1900 142.2  44.7
2023-11-07 04:38:03 57629_OBJECT D       227.5 33.2  ecl  1900 142.2  44.7
2023-11-07 04:41:34 57629_OBJECT D       169.9 15.0  ecl  1900 142.2  44.7

2023-11-07 05:06:13 57628_OBJECT C       257.5 15.0  ecl  1900 142.2  44.7
2023-11-07 05:08:10 57628_OBJECT C       229.4 18.4  ecl  1900 142.2  44.7
2023-11-07 05:10:07 57628_OBJECT C       201.3 15.0  ecl  1900 142.2  44.7

2023-11-07 05:17:13 LT-1 O1A              74.7 15.0  ecl  1900 142.2  44.7
2023-11-07 05:18:33 LT-1 O1A              97.4 17.1  ecl  1900 142.2  44.7
2023-11-07 05:19:53 LT-1 O1A             120.1 15.0  ecl  1900 142.2  44.7

2023-11-07 05:19:59 YAOGAN-30 V          219.7 15.0  ecl  1900 142.2  44.7
2023-11-07 05:23:26 YAOGAN-30 V          146.6 51.6  ecl  1900 142.2  44.7
2023-11-07 05:26:54 YAOGAN-30 V           73.6 15.0  ecl  1900 142.2  44.7

2023-11-07 05:40:04 YAOGAN-30 P          292.8 15.0  ecl  1900 142.2  44.7
2023-11-07 05:43:38 YAOGAN-30 P          212.2 66.9  ecl  1900 142.2  44.7
2023-11-07 05:47:12 YAOGAN-30 P          131.5 15.0  ecl  1900 142.2  44.7

2023-11-07 05:41:05 57519_OBJECT A        40.9 15.0  ecl  1900 142.2  44.7
2023-11-07 05:43:36 57519_OBJECT A        99.0 32.1  ecl  1900 142.2  44.7
2023-11-07 05:46:05 57519_OBJECT A       157.0 15.0  ecl  1900 142.2  44.7

2023-11-07 05:49:29 YAOGAN-37              1.7 15.0  ecl  1900 142.2  44.7
2023-11-07 05:51:08 YAOGAN-37             32.5 18.8  ecl  1900 142.2  44.7
2023-11-07 05:52:48 YAOGAN-37             63.3 15.0  ecl  1900 142.2  44.7

2023-11-07 06:02:25 LT-1 O1B              15.6 15.0  ecl  1900 142.2  44.7
2023-11-07 06:05:53 LT-1 O1B             101.5 78.0  ecl  1900 142.2  44.7
2023-11-07 06:09:21 LT-1 O1B             187.2 15.0  ecl  1900 142.2  44.7

2023-11-07 06:32:04 YUNHAI 1-02           38.8 15.0  ecl  1900 142.2  44.7
2023-11-07 06:35:50 YUNHAI 1-02           99.8 36.3  ecl  1900 142.2  44.7
2023-11-07 06:39:35 YUNHAI 1-02          160.7 15.0  ecl  1900 142.2  44.7

2023-11-07 06:44:49 HJ-2E                324.3 15.0  ecl  1900 142.2  44.7
2023-11-07 06:46:40 HJ-2E                284.9 21.6  ecl  1900 142.2  44.7
2023-11-07 06:48:31 HJ-2E                245.4 15.0  ecl  1900 142.2  44.7

2023-11-07 06:45:26 HJ-1B                 21.6 15.0  ecl  1900 142.2  44.7
2023-11-07 06:48:58 HJ-1B                100.8 62.5  ecl  1900 142.2  44.7
2023-11-07 06:52:33 HJ-1B                179.9 15.0  ecl  1900 142.2  44.7

2023-11-07 06:51:54 LT-1 O1A             326.2 15.0  ecl  1900 142.2  44.7
2023-11-07 06:54:08 LT-1 O1A             286.0 22.3  ecl  1900 142.2  44.7
2023-11-07 06:56:22 LT-1 O1A             245.8 15.0  ecl  1900 142.2  44.7

2023-11-07 06:53:07 SHIYAN 20A (SY-20A)  172.1 15.0  ecl  1900 142.2  44.7
2023-11-07 06:56:59 SHIYAN 20A (SY-20A)  115.4 33.1  ecl  1900 142.2  44.7
2023-11-07 07:00:51 SHIYAN 20A (SY-20A)   58.8 15.0  ecl  1900 142.2  44.7

2023-11-07 07:02:25 YAOGAN-30 V          280.5 15.0  ecl  1900 142.2  44.7
2023-11-07 07:05:27 YAOGAN-30 V          337.3 31.5  ecl  1900 142.2  44.7
2023-11-07 07:08:29 YAOGAN-30 V           34.1 15.0  ecl  1900 142.2  44.7

2023-11-07 07:24:04 YAOGAN-35 B          156.0 15.0  ecl  1900 142.2  44.7
2023-11-07 07:24:46 YAOGAN-35 B          142.8 15.6  ecl  1900 142.2  44.7
2023-11-07 07:25:28 YAOGAN-35 B          129.6 15.0  ecl  1900 142.2  44.7

2023-11-07 07:27:46 YAOGAN-37            294.3 15.0  ecl  1900 142.2  44.7
2023-11-07 07:30:50 YAOGAN-37            223.3 47.7  ecl  1900 142.2  44.7
2023-11-07 07:33:54 YAOGAN-37            152.3 15.0  ecl  1900 142.2  44.7

2023-11-07 07:28:36 YAOGAN-36 01B        232.9 15.0  ecl  1900 142.2  44.7
2023-11-07 07:31:29 YAOGAN-36 01B        148.6 74.8  ecl  1900 142.2  44.7
2023-11-07 07:34:22 YAOGAN-36 01B         64.4 15.0  ecl  1900 142.2  44.7

2023-11-07 07:57:53 YAOGAN-36 01C        212.0 15.0  ecl  1900 142.2  44.7
2023-11-07 08:00:41 YAOGAN-36 01C        146.1 40.2  ecl  1900 142.2  44.7
2023-11-07 08:03:30 YAOGAN-36 01C         80.3 15.0  ecl  1900 142.2  44.7

2023-11-07 08:13:27 YUNHAI 1-02          307.0 15.0  ecl  1900 142.2  44.7
2023-11-07 08:14:46 YUNHAI 1-02          289.1 16.4  ecl  1900 142.2  44.7
2023-11-07 08:16:05 YUNHAI 1-02          271.1 15.0  ecl  1900 142.2  44.7

2023-11-07 08:38:02 SHIYAN 20A (SY-20A)  261.5 15.0  ecl  1900 142.2  44.7
2023-11-07 08:41:14 SHIYAN 20A (SY-20A)  305.5 24.3  ecl  1900 142.2  44.7
2023-11-07 08:44:27 SHIYAN 20A (SY-20A)  349.6 15.0  ecl  1900 142.2  44.7

2023-11-07 08:57:28 YAOGAN-30 K          207.4 15.0  ecl  1900 142.2  44.7
2023-11-07 09:00:40 YAOGAN-30 K          145.1 37.0  ecl  1900 142.2  44.7
2023-11-07 09:03:52 YAOGAN-30 K           83.0 15.0  ecl  1900 142.2  44.7

2023-11-07 09:01:09 YAOGAN-35 B          248.3 15.0  ecl  1900 142.2  44.7
2023-11-07 09:04:12 YAOGAN-35 B          330.8 69.3  ecl  1900 142.2  44.7
2023-11-07 09:07:16 YAOGAN-35 B           53.4 15.0  ecl  1900 142.2  44.7

2023-11-07 09:01:12 YAOGAN-30 H          212.2 15.0  ecl  1900 142.2  44.7
2023-11-07 09:04:30 YAOGAN-30 H          145.7 41.8  ecl  1900 142.2  44.7
2023-11-07 09:07:48 YAOGAN-30 H           79.3 15.0  ecl  1900 142.2  44.7

2023-11-07 09:08:53 YAOGAN-36 01B        305.2 15.0  ecl  1900 142.2  44.7
2023-11-07 09:10:32 YAOGAN-36 01B        339.9 19.7  ecl  1900 142.2  44.7
2023-11-07 09:12:11 YAOGAN-36 01B         14.6 15.0  ecl  1900 142.2  44.7

2023-11-07 09:21:51 CBERS-4               78.0 15.0  ecl  1900 142.2  44.7
2023-11-07 09:23:15 CBERS-4               97.3 16.6  ecl  1900 142.2  44.7
2023-11-07 09:24:38 CBERS-4              116.5 15.0  ecl  1900 142.2  44.7

2023-11-07 09:24:03 57429_OBJECT F        76.4 15.0  ecl  1900 142.2  44.7
2023-11-07 09:25:05 57429_OBJECT F        97.3 16.6  ecl  1900 142.2  44.7
2023-11-07 09:26:07 57429_OBJECT F       118.1 15.0  ecl  1900 142.2  44.7

2023-11-07 09:24:40 57426_OBJECT C        76.5 15.0  ecl  1900 142.2  44.7
2023-11-07 09:25:41 57426_OBJECT C        97.3 16.6  ecl  1900 142.2  44.7
2023-11-07 09:26:42 57426_OBJECT C       118.0 15.0  ecl  1900 142.2  44.7

2023-11-07 09:26:42 HAIYANG 1C            51.3 15.0  ecl  1900 142.2  44.7
2023-11-07 09:29:51 HAIYANG 1C            98.7 26.1  ecl  1900 142.2  44.7
2023-11-07 09:33:01 HAIYANG 1C           146.1 15.0  ecl  1900 142.2  44.7

2023-11-07 09:37:46 YAOGAN-36 01C        280.3 15.0  ecl  1900 142.2  44.7
2023-11-07 09:40:19 YAOGAN-36 01C        336.2 30.3  ecl  1900 142.2  44.7
2023-11-07 09:42:52 YAOGAN-36 01C         32.1 15.0  ecl  1900 142.2  44.7

2023-11-07 09:41:24 YAOGAN-30 AA         233.1 15.0  ecl  1900 142.2  44.7
2023-11-07 09:44:59 YAOGAN-30 AA         148.5 76.5  ecl  1900 142.2  44.7
2023-11-07 09:48:35 YAOGAN-30 AA          63.9 15.0  ecl  1900 142.2  44.7

2023-11-07 09:42:54 57428_OBJECT E        42.4 15.0  ecl  1900 142.2  44.7
2023-11-07 09:45:16 57428_OBJECT E        98.9 30.7  ecl  1900 142.2  44.7
2023-11-07 09:47:38 57428_OBJECT E       155.4 15.0  ecl  1900 142.2  44.7

2023-11-07 10:04:14 ZY-1 02E              57.4 15.0  ecl  1900 142.2  44.7
2023-11-07 10:07:01 ZY-1 02E              98.4 22.8  ecl  1900 142.2  44.7
2023-11-07 10:09:48 ZY-1 02E             139.3 15.0  ecl  1900 142.2  44.7

2023-11-07 10:20:37 57425_OBJECT B       357.1 15.0  ecl  1900 142.2  44.7
2023-11-07 10:23:27 57425_OBJECT B       282.6 53.3  ecl  1900 142.2  44.7
2023-11-07 10:26:16 57425_OBJECT B       208.1 15.0  ecl  1900 142.2  44.7

2023-11-07 10:38:54 57427_OBJECT D       335.8 15.0  ecl  1900 142.2  44.7
2023-11-07 10:41:10 57427_OBJECT D       284.3 27.6  ecl  1900 142.2  44.7
2023-11-07 10:43:26 57427_OBJECT D       232.7 15.0  ecl  1900 142.2  44.7

2023-11-07 10:39:16 YAOGAN-30 K          269.9 15.0  ecl  1900 142.2  44.7
2023-11-07 10:42:34 YAOGAN-30 K          335.1 39.6  ecl  1900 142.2  44.7
2023-11-07 10:45:52 YAOGAN-30 K           40.4 15.0  ecl  1900 142.2  44.7

2023-11-07 10:43:07 YAOGAN-35 B          321.6 15.0  ecl  1900 142.2  44.7
2023-11-07 10:44:14 YAOGAN-35 B          343.1 16.7  ecl  1900 142.2  44.7
2023-11-07 10:45:22 YAOGAN-35 B            4.5 15.0  ecl  1900 142.2  44.7

2023-11-07 10:43:15 YAOGAN-30 H          274.0 15.0  ecl  1900 142.2  44.7
2023-11-07 10:46:26 YAOGAN-30 H          335.9 36.1  ecl  1900 142.2  44.7
2023-11-07 10:49:38 YAOGAN-30 H           37.9 15.0  ecl  1900 142.2  44.7

2023-11-07 10:46:09 57424_OBJECT A       324.7 15.0  ecl  1900 142.2  44.7
2023-11-07 10:48:01 57424_OBJECT A       285.1 21.7  ecl  1900 142.2  44.7
2023-11-07 10:49:52 57424_OBJECT A       245.4 15.0  ecl  1900 142.2  44.7

2023-11-07 10:57:50 57429_OBJECT F       296.1 15.0  ecl  1900 142.2  44.7
2023-11-07 10:58:20 57429_OBJECT F       286.1 15.4  ecl  1900 142.2  44.7
2023-11-07 10:58:50 57429_OBJECT F       276.1 15.0  ecl  1900 142.2  44.7

2023-11-07 10:58:22 57426_OBJECT C       296.2 15.0  ecl  1900 142.2  44.7
2023-11-07 10:58:52 57426_OBJECT C       286.1 15.4  ecl  1900 142.2  44.7
2023-11-07 10:59:23 57426_OBJECT C       276.1 15.0  ecl  1900 142.2  44.7

2023-11-07 10:58:41 CBERS-4              344.4 15.0  ecl  1900 142.2  44.7
2023-11-07 11:02:19 CBERS-4              286.0 34.5  ecl  1900 142.2  44.7
2023-11-07 11:05:57 CBERS-4              227.5 15.0  ecl  1900 142.2  44.7

2023-11-07 11:06:06 HAIYANG 1C           327.6 15.0  ecl  1900 142.2  44.7
2023-11-07 11:08:51 HAIYANG 1C           287.6 22.7  ecl  1900 142.2  44.7
2023-11-07 11:11:37 HAIYANG 1C           247.6 15.0  ecl  1900 142.2  44.7

2023-11-07 11:17:47 YUNHAI 2 3           347.5 15.0  ecl  1900 142.2  44.7
2023-11-07 11:21:37 YUNHAI 2 3            43.3 31.7  ecl  1900 142.2  44.7
2023-11-07 11:25:27 YUNHAI 2 3            99.0 15.0  ecl  1900 142.2  44.7

2023-11-07 11:21:37 YAOGAN-31 E           21.0 15.0  ecl  1900 142.2  44.7
2023-11-07 11:25:07 YAOGAN-31 E           55.8 20.9  ecl  1900 142.2  44.7
2023-11-07 11:28:38 YAOGAN-31 E           90.5 15.0  ecl  1900 142.2  44.7

2023-11-07 11:21:45 YAOGAN-31 D           24.7 15.0  ecl  1900 142.2  44.7
2023-11-07 11:24:52 YAOGAN-31 D           55.3 19.4  ecl  1900 142.2  44.7
2023-11-07 11:28:00 YAOGAN-31 D           85.8 15.0  ecl  1900 142.2  44.7

2023-11-07 11:24:32 YAOGAN-30 AA         293.6 15.0  ecl  1900 142.2  44.7
2023-11-07 11:27:08 YAOGAN-30 AA         340.1 24.9  ecl  1900 142.2  44.7
2023-11-07 11:29:45 YAOGAN-30 AA          26.6 15.0  ecl  1900 142.2  44.7

2023-11-07 11:42:56 ZY-1 02E             333.0 15.0  ecl  1900 142.2  44.7
2023-11-07 11:45:59 ZY-1 02E             287.3 25.5  ecl  1900 142.2  44.7
2023-11-07 11:49:01 ZY-1 02E             241.5 15.0  ecl  1900 142.2  44.7

2023-11-07 12:10:53 YAOGAN-30 V          324.9 15.0  ecl  1900 142.2  44.7
2023-11-07 12:13:58 YAOGAN-30 V           23.1 32.6  ecl  1900 142.2  44.7
2023-11-07 12:17:02 YAOGAN-30 V           81.2 15.0  ecl  1900 142.2  44.7

2023-11-07 12:21:45 HAIYANG 1D           117.0 15.0  ecl  1900 142.2  44.7
2023-11-07 12:24:44 HAIYANG 1D            72.5 24.8  ecl  1900 142.2  44.7
2023-11-07 12:27:44 HAIYANG 1D            28.1 15.0  ecl  1900 142.2  44.7

2023-11-07 12:24:32 YAOGAN-30 K          338.8 15.0  ecl  1900 142.2  44.7
2023-11-07 12:25:11 YAOGAN-30 K          349.2 15.4  ecl  1900 142.2  44.7
2023-11-07 12:25:50 YAOGAN-30 K          359.6 15.0  ecl  1900 142.2  44.7

2023-11-07 14:07:14 YAOGAN-36 01B        327.9 15.0  ecl  1900 142.2  44.7
2023-11-07 14:09:40 YAOGAN-36 01B         24.3 30.5  ecl  1900 142.2  44.7
2023-11-07 14:12:05 YAOGAN-36 01B         80.7 15.0  ecl  1900 142.2  44.7

2023-11-07 14:39:38 YAOGAN-36 01C        338.2 15.0  ecl  1900 142.2  44.7
2023-11-07 14:41:43 YAOGAN-36 01C         21.0 22.8  ecl  1900 142.2  44.7
2023-11-07 14:43:48 YAOGAN-36 01C         63.7 15.0  ecl  1900 142.2  44.7

2023-11-07 14:52:09 YAOGAN-30 AA         357.2 15.0  ecl  1900 142.2  44.7
2023-11-07 14:53:03 YAOGAN-30 AA          11.8 15.8  ecl  1900 142.2  44.7
2023-11-07 14:53:57 YAOGAN-30 AA          26.4 15.0  ecl  1900 142.2  44.7

2023-11-07 15:42:47 YAOGAN-35 B          314.8 15.0  ecl  1900 142.2  44.7
2023-11-07 15:45:44 YAOGAN-35 B           27.3 48.9  ecl  1900 142.2  44.7
2023-11-07 15:48:41 YAOGAN-35 B           99.7 15.0  ecl  1900 142.2  44.7

2023-11-07 15:48:19 YAOGAN-30 K          330.8 15.0  ecl  1900 142.2  44.7
2023-11-07 15:51:06 YAOGAN-30 K           20.7 26.8  ecl  1900 142.2  44.7
2023-11-07 15:53:53 YAOGAN-30 K           70.7 15.0  ecl  1900 142.2  44.7

2023-11-07 15:52:03 YAOGAN-30 H          328.6 15.0  ecl  1900 142.2  44.7
2023-11-07 15:54:57 YAOGAN-30 H           21.6 28.8  ecl  1900 142.2  44.7
2023-11-07 15:57:51 YAOGAN-30 H           74.7 15.0  ecl  1900 142.2  44.7

2023-11-07 16:32:15 YAOGAN-30 AA         317.6 15.0  ecl  1900 142.2  44.7
2023-11-07 16:35:36 YAOGAN-30 AA          25.7 43.0  ecl  1900 142.2  44.7
2023-11-07 16:38:58 YAOGAN-30 AA          93.6 15.0  ecl  1900 142.2  44.7

2023-11-07 17:00:30 YAOGAN-36 05A        177.7 15.0  ecl  1900 142.2  44.7
2023-11-07 17:02:14 YAOGAN-36 05A        143.5 19.7  ecl  1900 142.2  44.7
2023-11-07 17:03:58 YAOGAN-36 05A        109.4 15.0  ecl  1900 142.2  44.7

2023-11-07 17:07:38 57629_OBJECT D       139.7 15.0  ecl  1900 142.2  44.7
2023-11-07 17:08:18 57629_OBJECT D       130.1 15.4  ecl  1900 142.2  44.7
2023-11-07 17:08:59 57629_OBJECT D       120.6 15.0  ecl  1900 142.2  44.7

2023-11-07 17:09:29 YAOGAN-35 04B        199.3 15.0  ecl  1900 142.2  44.7
2023-11-07 17:11:58 YAOGAN-35 04B        145.0 29.4  ecl  1900 142.2  44.7
2023-11-07 17:14:27 YAOGAN-35 04B         90.6 15.0  ecl  1900 142.2  44.7

2023-11-07 17:09:29 YAOGAN-35 04B        199.3 15.0  ecl  1900 142.2  44.7
2023-11-07 17:11:58 YAOGAN-35 04B        145.0 29.4  ecl  1900 142.2  44.7
2023-11-07 17:14:27 YAOGAN-35 04B         90.6 15.0  ecl  1900 142.2  44.7

2023-11-07 17:24:23 YAOGAN-36 05C        202.1 15.0  ecl  1900 142.2  44.7
2023-11-07 17:26:59 YAOGAN-36 05C        145.1 31.5  ecl  1900 142.2  44.7
2023-11-07 17:29:36 YAOGAN-36 05C         88.2 15.0  ecl  1900 142.2  44.7

2023-11-07 17:35:24 57628_OBJECT C       183.1 15.0  ecl  1900 142.2  44.7
2023-11-07 17:38:36 57628_OBJECT C       132.0 28.3  ecl  1900 142.2  44.7
2023-11-07 17:41:49 57628_OBJECT C        80.9 15.0  ecl  1900 142.2  44.7

2023-11-07 17:39:58 YUNHAI 1-02           97.7 15.0  ecl  1900 142.2  44.7
2023-11-07 17:41:52 YUNHAI 1-02           71.3 18.1  ecl  1900 142.2  44.7
2023-11-07 17:43:46 YUNHAI 1-02           45.0 15.0  ecl  1900 142.2  44.7

2023-11-07 17:43:18 YAOGAN-36 05B        216.8 15.0  ecl  1900 142.2  44.7
2023-11-07 17:46:13 YAOGAN-36 05B        146.6 46.1  ecl  1900 142.2  44.7
2023-11-07 17:49:08 YAOGAN-36 05B         76.5 15.0  ecl  1900 142.2  44.7

2023-11-07 17:53:50 57627_OBJECT B       198.7 15.0  ecl  1900 142.2  44.7
2023-11-07 17:57:36 57627_OBJECT B       133.3 41.2  ecl  1900 142.2  44.7
2023-11-07 18:01:22 57627_OBJECT B        68.1 15.0  ecl  1900 142.2  44.7

2023-11-07 18:07:51 57626_OBJECT A       209.2 15.0  ecl  1900 142.2  44.7
2023-11-07 18:11:50 57626_OBJECT A       134.4 55.3  ecl  1900 142.2  44.7
2023-11-07 18:15:51 57626_OBJECT A        59.8 15.0  ecl  1900 142.2  44.7

2023-11-07 18:38:43 YAOGAN-36 05A        255.9 15.0  ecl  1900 142.2  44.7
2023-11-07 18:41:44 YAOGAN-36 05A        332.0 55.3  ecl  1900 142.2  44.7
2023-11-07 18:44:44 YAOGAN-36 05A         48.1 15.0  ecl  1900 142.2  44.7

2023-11-07 21:07:07 YAOGAN-37            180.3 15.0  ecl  1900 142.2  44.7
2023-11-07 21:09:23 YAOGAN-37            134.5 24.4  ecl  1900 142.2  44.7
2023-11-07 21:11:40 YAOGAN-37             88.8 15.0  ecl  1900 142.2  44.7

